{"km_range":[40.0,60.0],"buffer_m":800,"count":5,"items":[{"lat":35.352865,"lon":139.4982821,"km":40.662,"off_m":601.9,"name":"湯乃市藤沢柄沢店","amenity":"public_bath","website":"","search":"https://www.google.com/search?q=%E6%B9%AF%E4%B9%83%E5%B8%82%E8%97%A4%E6%B2%A2%E6%9F%84%E6%B2%A2%E5%BA%97%20%E9%8A%AD%E6%B9%AF","phone":"","opening_hours":""},{"lat":35.4178079,"lon":139.5640282,"km":51.437,"off_m":331.4,"name":"極楽湯横浜芹が谷店","amenity":"public_bath","website":"","search":"https://www.google.com/search?q=%E6%A5%B5%E6%A5%BD%E6%B9%AF%E6%A8%AA%E6%B5%9C%E8%8A%B9%E3%81%8C%E8%B0%B7%E5%BA%97%20%E9%8A%AD%E6%B9%AF","phone":"","opening_hours":""},{"lat":35.4460369,"lon":139.5977453,"km":57.199,"off_m":290.5,"name":"深川温泉常盤湯","amenity":"public_bath","website":"","search":"https://www.google.com/search?q=%E6%B7%B1%E5%B7%9D%E6%B8%A9%E6%B3%89%E5%B8%B8%E7%9B%A4%E6%B9%AF%20%E9%8A%AD%E6%B9%AF","phone":"","opening_hours":""},{"lat":35.4316704,"lon":139.599672,"km":58.661,"off_m":266.8,"name":"横浜天然温泉くさつ","amenity":"public_bath","website":"","search":"https://www.google.com/search?q=%E6%A8%AA%E6%B5%9C%E5%A4%A9%E7%84%B6%E6%B8%A9%E6%B3%89%E3%81%8F%E3%81%95%E3%81%A4%20%E9%8A%AD%E6%B9%AF","phone":"","opening_hours":""},{"lat":35.4313527,"lon":139.6132201,"km":59.673,"off_m":511.0,"name":"福徳湯","amenity":"public_bath","website":"","search":"https://www.google.com/search?q=%E7%A6%8F%E5%BE%B3%E6%B9%AF%20%E9%8A%AD%E6%B9%AF","phone":"","opening_hours":""}]}